
=== topic nearest ===
Current Location: Lat = 13.010602, Lon = 80.23453
=== topic nearest ===
Current Location: Lat = 13.010602, Lon = 80.23453
🚒 Nearest Fire Station: Unknown fire_station
   📍 Location: Lat = 13.0351313, Lon = 80.2306922
   📏 Distance: 2.76 km
🚓 Nearest Police Station: Srinagar colony police booth
   📍 Location: Lat = 13.0125062, Lon = 80.2272456
   📏 Distance: 0.82 km

=== topic nearest ===
Current Location: Lat = 13.010602, Lon = 80.23453
🚒 Primary Fire Station: Unknown fire_station
   📍 Location: Lat = 13.0351313, Lon = 80.2306922
   📏 Distance: 2.76 km
🚒 Backup Fire Station: Fire and Rescue station
   📍 Location: Lat = 13.0352121, Lon = 80.2306257
   📏 Distance: 2.77 km
🚓 Primary Police Station: Srinagar colony police booth
   📍 Location: Lat = 13.0125062, Lon = 80.2272456
   📏 Distance: 0.82 km
🚓 Backup Police Station: Police Station - J1 - Saidapet
   📍 Location: Lat = 13.0224076, Lon = 80.226078
   📏 Distance: 1.60 km

